[{"name":"1st Team Champ PAO CC - B group","location":"Athens","system":"t","startingDate":"2022-10-11","linkInfo":"tournament_details.phtml?event=301570","lat":37.9842,"lon":23.7281,"region":"Attikí"},{"name":"1st Team Champ PAO CC - Finals","location":"Athens","system":"t","startingDate":"2022-12-08","linkInfo":"tournament_details.phtml?event=301571","lat":37.9842,"lon":23.7281,"region":"Attikí"},{"name":"SO SAX 2022 exclusion from CL","location":"Thessaloniki","system":"s","startingDate":"2022-09-30","linkInfo":"tournament_details.phtml?event=301825","lat":40.6403,"lon":22.9356,"region":"Kentrikí Makedonía"},{"name":"SO SAX Champions League 2022 Finals Champ League","location":"Thessaloniki","system":"s","startingDate":"2022-11-11","linkInfo":"tournament_details.phtml?event=301830","lat":40.6403,"lon":22.9356,"region":"Kentrikí Makedonía"},{"name":"SO SAX Champions League 2022 Finals Euro League","location":"Thessaloniki","system":"s","startingDate":"2022-11-11","linkInfo":"tournament_details.phtml?event=301831","lat":40.6403,"lon":22.9356,"region":"Kentrikí Makedonía"},{"name":"SO SAX Champions League 2022 Finals Conf League","location":"Thessaloniki","system":"s","startingDate":"2022-11-11","linkInfo":"tournament_details.phtml?event=301832","lat":40.6403,"lon":22.9356,"region":"Kentrikí Makedonía"},{"name":"2022 National Youth Team U16 championships - Finals","location":"Rio Achaias","system":"t","startingDate":"2022-12-15","linkInfo":"tournament_details.phtml?event=302135","lat":38.3018989,"lon":21.782579},{"name":"2022 Youth U16 Team Championship of Attica","location":"Attica","system":"t","startingDate":"2022-10-02","linkInfo":"tournament_details.phtml?event=302149","lat":37.9946543,"lon":23.79940251269328},{"name":"2nd Blitz ESSK 2022","location":"ESSK","system":"s","startingDate":"2022-12-10","linkInfo":"tournament_details.phtml?event=302906"},{"name":"3rd Blitz ESSK 2022","location":"ESSK","system":"s","startingDate":"2022-12-18","linkInfo":"tournament_details.phtml?event=302907"},{"name":"5th Rapid ESSK 2022","location":"ESSK","system":"s","startingDate":"2022-12-18","linkInfo":"tournament_details.phtml?event=302913"},{"name":"2022 Youth U18 Individual Championships of Crete","location":"Crete","system":"s","startingDate":"2022-11-05","linkInfo":"tournament_details.phtml?event=302920","lat":35.308495199999996,"lon":24.46334231842296},{"name":"2022 NO Kalamatas Club Championship - A","location":"Kalamata","system":"r","startingDate":"2022-10-30","linkInfo":"tournament_details.phtml?event=304567","lat":37.0389,"lon":22.1142,"region":"Peloponnísos"},{"name":"2022 NO Kalamatas Club Championship - B","location":"Kalamata","system":"r","startingDate":"2022-10-30","linkInfo":"tournament_details.phtml?event=304574","lat":37.0389,"lon":22.1142,"region":"Peloponnísos"},{"name":"34th open PS Peristeriou","location":"Peristeri","system":"s","startingDate":"2022-10-22","linkInfo":"tournament_details.phtml?event=305197","lat":38.0167,"lon":23.6833,"region":"Attikí"},{"name":"35th open PS Peristeriou","location":"Peristeri","system":"s","startingDate":"2022-10-22","linkInfo":"tournament_details.phtml?event=305199","lat":38.0167,"lon":23.6833,"region":"Attikí"},{"name":"10th Junior U14 open PS Peristeriou","location":"Peristeri","system":"s","startingDate":"2022-10-22","linkInfo":"tournament_details.phtml?event=305205","lat":38.0167,"lon":23.6833,"region":"Attikí"},{"name":"Open International Tournament Keravnos Dec 2022 - A","location":"Thessaloniki","system":"s","startingDate":"2022-12-17","linkInfo":"tournament_details.phtml?event=306211","lat":40.6403,"lon":22.9356,"region":"Kentrikí Makedonía"},{"name":"6th Rapid White Tower 2022","location":"Thessaloniki","system":"s","startingDate":"2022-12-27","linkInfo":"tournament_details.phtml?event=306214","lat":40.6403,"lon":22.9356,"region":"Kentrikí Makedonía"},{"name":"6th Blitz White Tower 2022","location":"Thessaloniki","system":"s","startingDate":"2022-12-29","linkInfo":"tournament_details.phtml?event=306215","lat":40.6403,"lon":22.9356,"region":"Kentrikí Makedonía"},{"name":"14th Team U16 Championship 2022 of ESSKEDYM","location":"ESSKEDYM","system":"t","startingDate":"2022-10-23","linkInfo":"tournament_details.phtml?event=306223"},{"name":"4th Stamatopoulos Open 2022","location":"Athens","system":"s","startingDate":"2022-11-02","linkInfo":"tournament_details.phtml?event=306224","lat":37.9842,"lon":23.7281,"region":"Attikí"},{"name":"Celebration open chess square 2022","location":"Athens","system":"s","startingDate":"2022-11-05","linkInfo":"tournament_details.phtml?event=306225","lat":37.9842,"lon":23.7281,"region":"Attikí"},{"name":"AO Agrias Athlos Club Championship 2022-2023","location":"Agria","system":"s","startingDate":"2022-11-04","linkInfo":"tournament_details.phtml?event=306654","lat":39.34,"lon":23.0133,"region":"Thessalía"},{"name":"ACC under 1400 tournament Noe 2022","location":"Athens","system":"s","startingDate":"2022-11-02","linkInfo":"tournament_details.phtml?event=306664","lat":37.9842,"lon":23.7281,"region":"Attikí"},{"name":"ACC under 1600 tournament Noe 2022","location":"Athens","system":"s","startingDate":"2022-11-10","linkInfo":"tournament_details.phtml?event=306665","lat":37.9842,"lon":23.7281,"region":"Attikí"},{"name":"ACC Friday Blitz Noe 2022 - 4","location":"Athens","system":"s","startingDate":"2022-11-25","linkInfo":"tournament_details.phtml?event=306688","lat":37.9842,"lon":23.7281,"region":"Attikí"},{"name":"ACC Saturday Rapid Noe 2022 - 1","location":"Athens","system":"s","startingDate":"2022-11-05","linkInfo":"tournament_details.phtml?event=306689","lat":37.9842,"lon":23.7281,"region":"Attikí"},{"name":"ACC Saturday Rapid Noe 2022 - 4","location":"Athens","system":"s","startingDate":"2022-11-26","linkInfo":"tournament_details.phtml?event=306692","lat":37.9842,"lon":23.7281,"region":"Attikí"},{"name":"ACC Sunday Blitz Noe 2022 - 4","location":"Athens","system":"s","startingDate":"2022-11-27","linkInfo":"tournament_details.phtml?event=306696","lat":37.9842,"lon":23.7281,"region":"Attikí"},{"name":"14th Autumn open SON Filadelfeias Spyros Loverdos Cup","location":"N Filadelfeia","system":"s","startingDate":"2022-11-02","linkInfo":"tournament_details.phtml?event=306811","lat":40.796588400000005,"lon":22.848580896320552},{"name":"25th open Evoiki ES 2022","location":"Chalkida","system":"s","startingDate":"2022-11-06","linkInfo":"tournament_details.phtml?event=306878","lat":38.4625,"lon":23.595,"region":"Stereá Elláda"},{"name":"9th Memory team Cup 2022","location":"ESSTH-CHALK","system":"s","startingDate":"2022-11-06","linkInfo":"tournament_details.phtml?event=306880"},{"name":"16th youth U12 team Championship 2022","location":"ESSTH-CHALK","system":"t","startingDate":"2022-11-06","linkInfo":"tournament_details.phtml?event=306882"},{"name":"5th Junior-Bambini U10-8 team Championship 2022","location":"ESSTH-CHALK","system":"t","startingDate":"2022-11-12","linkInfo":"tournament_details.phtml?event=306885"},{"name":"1st open OPA Ag Paraskevis","location":"Ag Paraskevi","system":"s","startingDate":"2022-11-05","linkInfo":"tournament_details.phtml?event=306917","lat":38.2932247,"lon":21.9037824},{"name":"OFI Club Championship 2022","location":"Heraklio","system":"s","startingDate":"2022-10-31","linkInfo":"tournament_details.phtml?event=307479"},{"name":"GP Ioannidis Nanos 2022 Rapid U12","location":"Drama","system":"s","startingDate":"2022-11-13","linkInfo":"tournament_details.phtml?event=307583","lat":41.1514,"lon":24.1392,"region":"Anatolikí Makedonía kai Thráki"},{"name":"GP Ioannidis Nanos 2022 Rapid U12 2","location":"Drama","system":"s","startingDate":"2022-11-20","linkInfo":"tournament_details.phtml?event=307585","lat":41.1514,"lon":24.1392,"region":"Anatolikí Makedonía kai Thráki"},{"name":"Team Cup Spyros Bikos 2022","location":"Attica","system":"t","startingDate":"2022-11-06","linkInfo":"tournament_details.phtml?event=307587","lat":37.9946543,"lon":23.79940251269328},{"name":"Open Ultima Speed by ASOP Dias Nov 2022 - Blitz 2","location":"Petroupoli","system":"s","startingDate":"2022-11-09","linkInfo":"tournament_details.phtml?event=307591","lat":38.0396,"lon":23.6812,"region":"Attikí"},{"name":"Open Ultima Speed by ASOP Dias Nov 2022 - Blitz 4","location":"Petroupoli","system":"s","startingDate":"2022-11-23","linkInfo":"tournament_details.phtml?event=307593","lat":38.0396,"lon":23.6812,"region":"Attikí"},{"name":"Open Ultima Speed by ASOP Dias Nov 2022 - Blitz 5","location":"Petroupoli","system":"s","startingDate":"2022-11-30","linkInfo":"tournament_details.phtml?event=307594","lat":38.0396,"lon":23.6812,"region":"Attikí"},{"name":"Open Ultima Speed by ASOP Dias Nov 2022 - Rapid 4","location":"Petroupoli","system":"s","startingDate":"2022-11-23","linkInfo":"tournament_details.phtml?event=307597","lat":38.0396,"lon":23.6812,"region":"Attikí"},{"name":"Open Ultima Speed by ASOP Dias Nov 2022 - Rapid 5","location":"Petroupoli","system":"s","startingDate":"2022-11-30","linkInfo":"tournament_details.phtml?event=307598","lat":38.0396,"lon":23.6812,"region":"Attikí"},{"name":"GP PSSK Serron 2022 Rapid 3","location":"Serres","system":"s","startingDate":"2022-11-27","linkInfo":"tournament_details.phtml?event=307740","lat":41.0833,"lon":23.55,"region":"Kentrikí Makedonía"},{"name":"11th RR SS Larisas - A","location":"Larisa","system":"r","startingDate":"2022-11-12","linkInfo":"tournament_details.phtml?event=307742","lat":39.6369,"lon":22.4176,"region":"Thessalía"},{"name":"11th RR SS Larisas - B","location":"Larisa","system":"r","startingDate":"2022-11-12","linkInfo":"tournament_details.phtml?event=307743","lat":39.6369,"lon":22.4176,"region":"Thessalía"},{"name":"11th RR SS Larisas - C","location":"Larisa","system":"r","startingDate":"2022-11-12","linkInfo":"tournament_details.phtml?event=307744","lat":39.6369,"lon":22.4176,"region":"Thessalía"},{"name":"11th RR SS Larisas - D","location":"Larisa","system":"r","startingDate":"2022-11-12","linkInfo":"tournament_details.phtml?event=307745","lat":39.6369,"lon":22.4176,"region":"Thessalía"},{"name":"2nd open ESP Machites Nov 2022","location":"Keratsini","system":"s","startingDate":"2022-11-13","linkInfo":"tournament_details.phtml?event=307829","lat":37.9643,"lon":23.6199,"region":"Attikí"},{"name":"12th open Agrias Nov 2022","location":"Agria","system":"s","startingDate":"2022-11-16","linkInfo":"tournament_details.phtml?event=307832","lat":39.34,"lon":23.0133,"region":"Thessalía"},{"name":"Blitz Roque Nov 2022 - GP6.6","location":"Patra","system":"s","startingDate":"2022-11-28","linkInfo":"tournament_details.phtml?event=307835","lat":38.25,"lon":21.7333,"region":"Dytikí Elláda"},{"name":"Blitz Roque Dec 2022 - GP6.7","location":"Patra","system":"s","startingDate":"2022-12-05","linkInfo":"tournament_details.phtml?event=307836","lat":38.25,"lon":21.7333,"region":"Dytikí Elláda"},{"name":"2022 team Rapid ESSAMTH","location":"Drama","system":"t","startingDate":"2022-12-04","linkInfo":"tournament_details.phtml?event=307838","lat":41.1514,"lon":24.1392,"region":"Anatolikí Makedonía kai Thráki"},{"name":"2022 youth team Rapid ESSAMTH","location":"Drama","system":"t","startingDate":"2022-12-04","linkInfo":"tournament_details.phtml?event=307839","lat":41.1514,"lon":24.1392,"region":"Anatolikí Makedonía kai Thráki"},{"name":"Open Nov - Dec 2022","location":"Thessaloniki","system":"s","startingDate":"2022-11-19","linkInfo":"tournament_details.phtml?event=308016","lat":40.6403,"lon":22.9356,"region":"Kentrikí Makedonía"},{"name":"4th Chess Academies tournament Dec 2022","location":"Thessaloniki","system":"s","startingDate":"2022-12-16","linkInfo":"tournament_details.phtml?event=308017","lat":40.6403,"lon":22.9356,"region":"Kentrikí Makedonía"},{"name":"10th open PAO Chess Club 2022","location":"Athens","system":"s","startingDate":"2022-11-11","linkInfo":"tournament_details.phtml?event=308232","lat":37.9842,"lon":23.7281,"region":"Attikí"},{"name":"4th castle Blitz 2022","location":"Nafplio","system":"s","startingDate":"2022-12-04","linkInfo":"tournament_details.phtml?event=308444","lat":37.5667,"lon":22.8,"region":"Peloponnísos"},{"name":"Castle 2022 Rapid","location":"Nafplio","system":"s","startingDate":"2022-12-03","linkInfo":"tournament_details.phtml?event=308445","lat":37.5667,"lon":22.8,"region":"Peloponnísos"},{"name":"6th open GIOACHINO GRECO","location":"Athens","system":"s","startingDate":"2022-11-13","linkInfo":"tournament_details.phtml?event=308447","lat":37.9842,"lon":23.7281,"region":"Attikí"},{"name":"17th of November U1800 - NEP GP 2022-2023","location":"Patra","system":"s","startingDate":"2022-11-19","linkInfo":"tournament_details.phtml?event=308583","lat":38.25,"lon":21.7333,"region":"Dytikí Elláda"},{"name":"1st TEE TDE rapid Dec 2022","location":"Patra","system":"s","startingDate":"2022-12-11","linkInfo":"tournament_details.phtml?event=308584","lat":38.25,"lon":21.7333,"region":"Dytikí Elláda"},{"name":"52nd Blitz Chess Square","location":"Athens","system":"s","startingDate":"2022-11-20","linkInfo":"tournament_details.phtml?event=308589","lat":37.9842,"lon":23.7281,"region":"Attikí"},{"name":"Frenship meeting SOL SAL SNOL SOS 2022","location":"Lamia","system":"t","startingDate":"2022-11-19","linkInfo":"tournament_details.phtml?event=309024","lat":38.8972,"lon":22.4311,"region":"Stereá Elláda"},{"name":"55th U16 rapid SO Kallitheas Nov 2022","location":"Kallithea","system":"s","startingDate":"2022-11-27","linkInfo":"tournament_details.phtml?event=309159","lat":37.95,"lon":23.7,"region":"Attikí"},{"name":"3rd open Blitz Chalandri CC Nov 2022","location":"Chalandri","system":"s","startingDate":"2022-11-28","linkInfo":"tournament_details.phtml?event=309166","lat":38.0167,"lon":23.8,"region":"Attikí"},{"name":"Autumn tournament EAP 2022","location":"Patra","system":"s","startingDate":"2022-11-27","linkInfo":"tournament_details.phtml?event=309221","lat":38.25,"lon":21.7333,"region":"Dytikí Elláda"},{"name":"2nd Autumn Rapid Evoiki ES Nov 2022","location":"Chalkida","system":"s","startingDate":"2022-11-27","linkInfo":"tournament_details.phtml?event=309574","lat":38.4625,"lon":23.595,"region":"Stereá Elláda"},{"name":"Christmas Rapid 2022 - AMO Galaxias","location":"Thessaloniki","system":"s","startingDate":"2022-12-23","linkInfo":"tournament_details.phtml?event=309575","lat":40.6403,"lon":22.9356,"region":"Kentrikí Makedonía"},{"name":"Rapid Magnisia Open 2022","location":"Volos","system":"s","startingDate":"2022-12-04","linkInfo":"tournament_details.phtml?event=309801","lat":39.3611,"lon":22.9425,"region":"Thessalía"},{"name":"30th OPEN RAPID PAO CC","location":"Athens","system":"s","startingDate":"2022-11-27","linkInfo":"tournament_details.phtml?event=310106","lat":37.9842,"lon":23.7281,"region":"Attikí"},{"name":"3rd open Rapid Chalandri CC Dec 2022","location":"Chalandri","system":"s","startingDate":"2022-12-05","linkInfo":"tournament_details.phtml?event=310107","lat":38.0167,"lon":23.8,"region":"Attikí"},{"name":"4th open Blitz Chalandri CC Dec 2022","location":"Chalandri","system":"s","startingDate":"2022-12-12","linkInfo":"tournament_details.phtml?event=310108","lat":38.0167,"lon":23.8,"region":"Attikí"},{"name":"4th open Rapid Chalandri CC Dec 2022","location":"Chalandri","system":"s","startingDate":"2022-12-19","linkInfo":"tournament_details.phtml?event=310109","lat":38.0167,"lon":23.8,"region":"Attikí"},{"name":"Teams Cup of Cretan Frienship 2022","location":"ESSK","system":"t","startingDate":"2022-11-26","linkInfo":"tournament_details.phtml?event=310135"},{"name":"33th Rapid ToPionaki","location":"Agria","system":"s","startingDate":"2022-12-11","linkInfo":"tournament_details.phtml?event=310136","lat":39.34,"lon":23.0133,"region":"Thessalía"},{"name":"79th Rapid Panellinion cafe Dec 2022","location":"Athens","system":"s","startingDate":"2022-12-03","linkInfo":"tournament_details.phtml?event=310137","lat":37.9842,"lon":23.7281,"region":"Attikí"},{"name":"80th Rapid Panellinion cafe Dec 2022","location":"Athens","system":"s","startingDate":"2022-12-10","linkInfo":"tournament_details.phtml?event=310273","lat":37.9842,"lon":23.7281,"region":"Attikí"},{"name":"81st Rapid Panellinion cafe Dec 2022","location":"Athens","system":"s","startingDate":"2022-12-17","linkInfo":"tournament_details.phtml?event=310274","lat":37.9842,"lon":23.7281,"region":"Attikí"},{"name":"ACC Friday Blitz Dec 2022 - 1","location":"Athens","system":"s","startingDate":"2022-12-02","linkInfo":"tournament_details.phtml?event=310275","lat":37.9842,"lon":23.7281,"region":"Attikí"},{"name":"ACC Friday Blitz Dec 2022 - 2","location":"Athens","system":"s","startingDate":"2022-12-09","linkInfo":"tournament_details.phtml?event=310276","lat":37.9842,"lon":23.7281,"region":"Attikí"},{"name":"ACC Friday Blitz Dec 2022 - 3","location":"Athens","system":"s","startingDate":"2022-12-16","linkInfo":"tournament_details.phtml?event=310277","lat":37.9842,"lon":23.7281,"region":"Attikí"},{"name":"ACC Friday Blitz Dec 2022 - 4","location":"Athens","system":"s","startingDate":"2022-12-23","linkInfo":"tournament_details.phtml?event=310278","lat":37.9842,"lon":23.7281,"region":"Attikí"},{"name":"ACC Saturday Rapid Dec 2022 - 1","location":"Athens","system":"s","startingDate":"2022-12-03","linkInfo":"tournament_details.phtml?event=310280","lat":37.9842,"lon":23.7281,"region":"Attikí"},{"name":"ACC Saturday Rapid Dec 2022 - 2","location":"Athens","system":"s","startingDate":"2022-12-10","linkInfo":"tournament_details.phtml?event=310281","lat":37.9842,"lon":23.7281,"region":"Attikí"},{"name":"ACC Saturday Rapid Dec 2022 - 3","location":"Athens","system":"s","startingDate":"2022-12-17","linkInfo":"tournament_details.phtml?event=310283","lat":37.9842,"lon":23.7281,"region":"Attikí"},{"name":"ACC Saturday Rapid Dec 2022 - 4","location":"Athens","system":"s","startingDate":"2022-12-24","linkInfo":"tournament_details.phtml?event=310284","lat":37.9842,"lon":23.7281,"region":"Attikí"},{"name":"ACC Sunday Blitz Dec2022 - 1","location":"Athens","system":"s","startingDate":"2022-12-04","linkInfo":"tournament_details.phtml?event=310286","lat":37.9842,"lon":23.7281,"region":"Attikí"},{"name":"ACC Sunday Blitz Dec2022 - 2","location":"Athens","system":"s","startingDate":"2022-12-11","linkInfo":"tournament_details.phtml?event=310287","lat":37.9842,"lon":23.7281,"region":"Attikí"},{"name":"ACC Sunday Blitz Dec2022 - 3","location":"Athens","system":"s","startingDate":"2022-12-18","linkInfo":"tournament_details.phtml?event=310288","lat":37.9842,"lon":23.7281,"region":"Attikí"},{"name":"ACC Sunday Blitz Dec2022 - 4","location":"Athens","system":"s","startingDate":"2022-12-25","linkInfo":"tournament_details.phtml?event=310289","lat":37.9842,"lon":23.7281,"region":"Attikí"},{"name":"71st Greek National Championship 2022","location":"Athens","system":"r","startingDate":"2022-12-03","linkInfo":"tournament_details.phtml?event=310497","lat":37.9842,"lon":23.7281,"region":"Attikí"},{"name":"44th Greek National Women Championship 2022","location":"Athens","system":"r","startingDate":"2022-12-03","linkInfo":"tournament_details.phtml?event=310499","lat":37.9842,"lon":23.7281,"region":"Attikí"},{"name":"7th GP ESP Machites Dec 2022 - 1","location":"Keratsini","system":"s","startingDate":"2022-12-03","linkInfo":"tournament_details.phtml?event=310749","lat":37.9643,"lon":23.6199,"region":"Attikí"},{"name":"Lamia winter 2022","location":"Lamia","system":"s","startingDate":"2022-12-03","linkInfo":"tournament_details.phtml?event=310750","lat":38.8972,"lon":22.4311,"region":"Stereá Elláda"},{"name":"31st OPEN RAPID PAO CC","location":"Athens","system":"s","startingDate":"2022-12-04","linkInfo":"tournament_details.phtml?event=310751","lat":37.9842,"lon":23.7281,"region":"Attikí"},{"name":"32nd OPEN RAPID PAO CC","location":"Athens","system":"s","startingDate":"2022-12-11","linkInfo":"tournament_details.phtml?event=310752","lat":37.9842,"lon":23.7281,"region":"Attikí"},{"name":"33rd OPEN RAPID PAO CC","location":"Athens","system":"s","startingDate":"2022-12-18","linkInfo":"tournament_details.phtml?event=310753","lat":37.9842,"lon":23.7281,"region":"Attikí"},{"name":"15th open AS N Psychiko A","location":"Psychiko","system":"s","startingDate":"2022-12-04","linkInfo":"tournament_details.phtml?event=310754","lat":38.018,"lon":23.7804,"region":"Attikí"},{"name":"15th open AS N Psychiko B","location":"Psychiko","system":"s","startingDate":"2022-12-04","linkInfo":"tournament_details.phtml?event=310755","lat":38.018,"lon":23.7804,"region":"Attikí"},{"name":"SIS Blitz Dec 2022","location":"Ioannina","system":"s","startingDate":"2022-12-08","linkInfo":"tournament_details.phtml?event=310757","lat":39.6636,"lon":20.8522,"region":"Ípeiros"},{"name":"SIS Rapid Dec 2022","location":"Ioannina","system":"s","startingDate":"2022-12-09","linkInfo":"tournament_details.phtml?event=310758","lat":39.6636,"lon":20.8522,"region":"Ípeiros"},{"name":"9th BLiTZFiGHT OPAX Mind Games Dec 2022","location":"Cholargos","system":"s","startingDate":"2022-12-09","linkInfo":"tournament_details.phtml?event=310759","lat":38.001,"lon":23.8008,"region":"Attikí"},{"name":"10th BLiTZFiGHT OPAX Mind Games Dec 2022","location":"Cholargos","system":"s","startingDate":"2022-12-16","linkInfo":"tournament_details.phtml?event=310760","lat":38.001,"lon":23.8008,"region":"Attikí"},{"name":"19th open SO Peristeriou Dec 2022","location":"Peristeri","system":"s","startingDate":"2022-12-10","linkInfo":"tournament_details.phtml?event=310761","lat":38.0167,"lon":23.6833,"region":"Attikí"},{"name":"5th open Rapid Kallitheas","location":"Kallithea","system":"s","startingDate":"2022-12-11","linkInfo":"tournament_details.phtml?event=310762","lat":37.95,"lon":23.7,"region":"Attikí"},{"name":"2nd Blitz Tsakmakas Ilias Dec 2022","location":"Thessaloniki","system":"s","startingDate":"2022-12-14","linkInfo":"tournament_details.phtml?event=310763","lat":40.6403,"lon":22.9356,"region":"Kentrikí Makedonía"},{"name":"Univercities Rapid Chess 2022","location":"Athens","system":"s","startingDate":"2022-12-15","linkInfo":"tournament_details.phtml?event=310764","lat":37.9842,"lon":23.7281,"region":"Attikí"},{"name":"ACC League 2022 A group","location":"Athens","system":"s","startingDate":"2022-12-06","linkInfo":"tournament_details.phtml?event=310768","lat":37.9842,"lon":23.7281,"region":"Attikí"},{"name":"ACC League 2022 B group","location":"Athens","system":"s","startingDate":"2022-12-06","linkInfo":"tournament_details.phtml?event=310769","lat":37.9842,"lon":23.7281,"region":"Attikí"},{"name":"ACC League 2022 C group","location":"Athens","system":"s","startingDate":"2022-12-06","linkInfo":"tournament_details.phtml?event=310770","lat":37.9842,"lon":23.7281,"region":"Attikí"},{"name":"ACC League 2022 D group","location":"Athens","system":"s","startingDate":"2022-12-06","linkInfo":"tournament_details.phtml?event=310771","lat":37.9842,"lon":23.7281,"region":"Attikí"},{"name":"Youth U18 championship of ESSK 2022","location":"Heraklio Chania","system":"s","startingDate":"2022-12-09","linkInfo":"tournament_details.phtml?event=311033"},{"name":"7th GP ESP Machites Dec 2022 - 2","location":"Keratsini","system":"s","startingDate":"2022-12-10","linkInfo":"tournament_details.phtml?event=311034","lat":37.9643,"lon":23.6199,"region":"Attikí"},{"name":"16th open rapid Korinthos 2022","location":"Korinthos","system":"s","startingDate":"2022-12-10","linkInfo":"tournament_details.phtml?event=311035","lat":37.9333,"lon":22.9333,"region":"Peloponnísos"},{},{"name":"2nd International open SKG Chess Academy \"White Tower\" X-mas A","location":"Thessaloniki","system":"s","startingDate":"2023-01-02","linkInfo":"tournament_details.phtml?event=304240","lat":40.6403,"lon":22.9356,"region":"Kentrikí Makedonía"},{"name":"2nd International open SKG Chess Academy \"White Tower\" X-mas B","location":"Thessaloniki","system":"s","startingDate":"2023-01-02","linkInfo":"tournament_details.phtml?event=304241","lat":40.6403,"lon":22.9356,"region":"Kentrikí Makedonía"},{"name":"2nd International open SKG Chess Academy \"White Tower\" X-mas C","location":"Thessaloniki","system":"s","startingDate":"2023-01-02","linkInfo":"tournament_details.phtml?event=304242","lat":40.6403,"lon":22.9356,"region":"Kentrikí Makedonía"},{"name":"5th open Nikolaos Giamarelos 2023 - A group","location":"Chalkida","system":"s","startingDate":"2023-01-05","linkInfo":"tournament_details.phtml?event=307599","lat":38.4625,"lon":23.595,"region":"Stereá Elláda"},{"name":"5th open Nikolaos Giamarelos 2023 - B group","location":"Chalkida","system":"s","startingDate":"2023-01-05","linkInfo":"tournament_details.phtml?event=307600","lat":38.4625,"lon":23.595,"region":"Stereá Elláda"},{"name":"17th Open OPAX Mind Games Nov 2022","location":"Cholargos","system":"s","startingDate":"2022-11-27","linkInfo":"tournament_details.phtml?event=307831","lat":38.001,"lon":23.8008,"region":"Attikí"},{"name":"Round Robin Ikaros Nov 2022","location":"Ag Kyrikos Ikaria","system":"r","startingDate":"2022-11-20","linkInfo":"tournament_details.phtml?event=308581"},{"name":"2022 Championship of Ikaria","location":"Ag Kyrikos Ikaria","system":"d","startingDate":"2022-11-20","linkInfo":"tournament_details.phtml?event=308582"},{"name":"ACC Friday Blitz Dec 2022 - 5","location":"Athens","system":"s","startingDate":"2022-12-30","linkInfo":"tournament_details.phtml?event=310279","lat":37.9842,"lon":23.7281,"region":"Attikí"},{"name":"ACC Saturday Rapid Dec 2022 - 5","location":"Athens","system":"s","startingDate":"2022-12-31","linkInfo":"tournament_details.phtml?event=310285","lat":37.9842,"lon":23.7281,"region":"Attikí"},{"name":"11th open PAO Chess Club 2022","location":"Athens","system":"s","startingDate":"2022-12-05","linkInfo":"tournament_details.phtml?event=310756","lat":37.9842,"lon":23.7281,"region":"Attikí"},{"name":"38th Christmas Cup 2022 A","location":"Kavala","system":"s","startingDate":"2022-12-26","linkInfo":"tournament_details.phtml?event=310766","lat":40.935,"lon":24.415,"region":"Anatolikí Makedonía kai Thráki"},{"name":"ACC League 2022 Finals","location":"Athens","system":"s","startingDate":"2023-01-03","linkInfo":"tournament_details.phtml?event=310772","lat":37.9842,"lon":23.7281,"region":"Attikí"},{},{"name":"1st round robin Chania 2022 over 2000","location":"Chania","system":"r","startingDate":"2022-11-05","linkInfo":"tournament_details.phtml?event=306335","lat":35.5173,"lon":24.0195,"region":"Kríti"},{}]